[{"Name":"Service Centre 1","ImageUrl":"/Data/Images/001.jpg","Phone":"00000001","Url":"www.our-service-centre-url.com/sc1","Latitude":-31.862841,"Longitude":115.817638,"Address":"Service Centre 1 Address Details go here!"},{"Name":"Service Centre 2","ImageUrl":"/Data/Images/002.jpg","Phone":"00000002","Url":"www.our-service-centre-url.com/sc2","Latitude":-31.94046,"Longitude":115.81889,"Address":"Service Centre 2 Address Details go here!"},{"Name":"Service Centre 3","ImageUrl":"/Data/Images/003.jpg","Phone":"00000003","Url":"www.our-service-centre-url.com/sc3","Latitude":-34.93461,"Longitude":138.606772,"Address":"Service Centre 3 Address Details go here!"},{"Name":"Service Centre 4","ImageUrl":"/Data/Images/004.jpg","Phone":"00000004","Url":"www.our-service-centre-url.com/sc4","Latitude":-33.815139,"Longitude":151.181815,"Address":"Service Centre 4 Address Details go here!"},{"Name":"Service Centre 5","ImageUrl":"/Data/Images/005.jpg","Phone":"00000005","Url":"www.our-service-centre-url.com/sc5","Latitude":-33.674268,"Longitude":151.3086,"Address":"Service Centre 5 Address Details go here!"},{"Name":"Service Centre 6","ImageUrl":"/Data/Images/006.jpg","Phone":"00000006","Url":"www.our-service-centre-url.com/sc6","Latitude":-33.890928,"Longitude":151.245376,"Address":"Service Centre 6 Address Details go here!"},{"Name":"Service Centre 7","ImageUrl":"/Data/Images/007.jpg","Phone":"00000007","Url":"www.our-service-centre-url.com/sc7","Latitude":-16.930424,"Longitude":145.757584,"Address":"Service Centre 7 Address Details go here!"},{"Name":"Service Centre 8","ImageUrl":"/Data/Images/008.jpg","Phone":"00000008","Url":"www.our-service-centre-url.com/sc8","Latitude":-33.731139,"Longitude":150.97849,"Address":"Service Centre 8 Address Details go here!"},{"Name":"Service Centre 9","ImageUrl":"/Data/Images/009.jpg","Phone":"00000009","Url":"www.our-service-centre-url.com/sc9","Latitude":-37.877835,"Longitude":145.147135,"Address":"Service Centre 9 Address Details go here!"},{"Name":"Service Centre 10","ImageUrl":"/Data/Images/010.jpg","Phone":"000000010","Url":"www.our-service-centre-url.com/sc10","Latitude":-37.850337,"Longitude":145.093374,"Address":"Service Centre 10 Address Details go here!"},{"Name":"Service Centre 11","ImageUrl":"/Data/Images/011.jpg","Phone":"000000011","Url":"www.our-service-centre-url.com/sc11","Latitude":0.0,"Longitude":0.0,"Address":"Service Centre 11 Address Details go here!"},{"Name":"Service Centre 12","ImageUrl":"/Data/Images/012.jpg","Phone":"000000012","Url":"www.our-service-centre-url.com/sc12","Latitude":-37.805734,"Longitude":144.942728,"Address":"Service Centre 12 Address Details go here!"},{"Name":"Service Centre 13","ImageUrl":"/Data/Images/013.jpg","Phone":"000000013","Url":"www.our-service-centre-url.com/sc13","Latitude":-37.86245,"Longitude":145.286756,"Address":"Service Centre 13 Address Details go here!"},{"Name":"Service Centre 14","ImageUrl":"/Data/Images/014.jpg","Phone":"000000014","Url":"www.our-service-centre-url.com/sc14","Latitude":0.0,"Longitude":0.0,"Address":"Service Centre 14 Address Details go here!"},{"Name":"Service Centre 15","ImageUrl":"/Data/Images/015.jpg","Phone":"000000015","Url":"www.our-service-centre-url.com/sc15","Latitude":-37.799693,"Longitude":144.89766,"Address":"Service Centre 15 Address Details go here!"},{"Name":"Service Centre 16","ImageUrl":"/Data/Images/016.jpg","Phone":"000000016","Url":"www.our-service-centre-url.com/sc16","Latitude":-33.956441,"Longitude":151.230109,"Address":"Service Centre 16 Address Details go here!"},{"Name":"Service Centre 17","ImageUrl":"/Data/Images/017.jpg","Phone":"000000017","Url":"www.our-service-centre-url.com/sc17","Latitude":-33.869855,"Longitude":151.205191,"Address":"Service Centre 17 Address Details go here!"},{"Name":"Service Centre 18","ImageUrl":"/Data/Images/018.jpg","Phone":"000000018","Url":"www.our-service-centre-url.com/sc18","Latitude":-33.837656,"Longitude":151.209455,"Address":"Service Centre 18 Address Details go here!"},{"Name":"Service Centre 19","ImageUrl":"/Data/Images/019.jpg","Phone":"000000019","Url":"www.our-service-centre-url.com/sc19","Latitude":-32.053244,"Longitude":115.74837,"Address":"Service Centre 19 Address Details go here!"},{"Name":"Service Centre 20","ImageUrl":"/Data/Images/020.jpg","Phone":"000000020","Url":"www.our-service-centre-url.com/sc20","Latitude":-27.490481,"Longitude":152.987396,"Address":"Service Centre 20 Address Details go here!"},{"Name":"Service Centre 21","ImageUrl":"/Data/Images/021.jpg","Phone":"000000021","Url":"www.our-service-centre-url.com/sc21","Latitude":-27.463162,"Longitude":153.024706,"Address":"Service Centre 21 Address Details go here!"},{"Name":"Service Centre 22","ImageUrl":"/Data/Images/022.jpg","Phone":"000000022","Url":"www.our-service-centre-url.com/sc22","Latitude":-27.559594,"Longitude":153.081881,"Address":"Service Centre 22 Address Details go here!"},{"Name":"Service Centre 23","ImageUrl":"/Data/Images/023.jpg","Phone":"000000023","Url":"www.our-service-centre-url.com/sc23","Latitude":-31.749503,"Longitude":115.764773,"Address":"Service Centre 23 Address Details go here!"},{"Name":"Service Centre 24","ImageUrl":"/Data/Images/024.jpg","Phone":"000000024","Url":"www.our-service-centre-url.com/sc24","Latitude":-30.284533,"Longitude":153.125544,"Address":"Service Centre 24 Address Details go here!"},{"Name":"Service Centre 25","ImageUrl":"/Data/Images/025.jpg","Phone":"000000025","Url":"www.our-service-centre-url.com/sc25","Latitude":-28.037387,"Longitude":153.432226,"Address":"Service Centre 25 Address Details go here!"},{"Name":"Service Centre 26","ImageUrl":"/Data/Images/026.jpg","Phone":"000000026","Url":"www.our-service-centre-url.com/sc26","Latitude":-26.666788,"Longitude":153.091827,"Address":"Service Centre 26 Address Details go here!"},{"Name":"Service Centre 27","ImageUrl":"/Data/Images/027.jpg","Phone":"000000027","Url":"www.our-service-centre-url.com/sc27","Latitude":-33.885024,"Longitude":151.202373,"Address":"Service Centre 27 Address Details go here!"},{"Name":"Service Centre 28","ImageUrl":"/Data/Images/028.jpg","Phone":"000000028","Url":"www.our-service-centre-url.com/sc28","Latitude":-37.847997,"Longitude":145.001218,"Address":"Service Centre 28 Address Details go here!"},{"Name":"Service Centre 29","ImageUrl":"/Data/Images/029.jpg","Phone":"000000029","Url":"www.our-service-centre-url.com/sc29","Latitude":-27.433237,"Longitude":153.04216,"Address":"Service Centre 29 Address Details go here!"},{"Name":"Service Centre 30","ImageUrl":"/Data/Images/030.jpg","Phone":"000000030","Url":"www.our-service-centre-url.com/sc30","Latitude":-33.922178,"Longitude":151.195834,"Address":"Service Centre 30 Address Details go here!"},{"Name":"Service Centre 31","ImageUrl":"/Data/Images/031.jpg","Phone":"000000031","Url":"www.our-service-centre-url.com/sc31","Latitude":-33.762949,"Longitude":151.269828,"Address":"Service Centre 31 Address Details go here!"},{"Name":"Service Centre 32","ImageUrl":"/Data/Images/032.jpg","Phone":"000000032","Url":"www.our-service-centre-url.com/sc32","Latitude":-28.203843,"Longitude":153.544321,"Address":"Service Centre 32 Address Details go here!"},{"Name":"Service Centre 33","ImageUrl":"/Data/Images/033.jpg","Phone":"000000033","Url":"www.our-service-centre-url.com/sc33","Latitude":-27.971985,"Longitude":153.41513,"Address":"Service Centre 33 Address Details go here!"},{"Name":"Service Centre 34","ImageUrl":"/Data/Images/034.jpg","Phone":"000000034","Url":"www.our-service-centre-url.com/sc34","Latitude":-37.757236,"Longitude":145.346091,"Address":"Service Centre 34 Address Details go here!"},{"Name":"Service Centre 35","ImageUrl":"/Data/Images/035.jpg","Phone":"000000035","Url":"www.our-service-centre-url.com/sc35","Latitude":-37.831054,"Longitude":145.055486,"Address":"Service Centre 35 Address Details go here!"},{"Name":"Service Centre 36","ImageUrl":"/Data/Images/036.jpg","Phone":"000000036","Url":"www.our-service-centre-url.com/sc36","Latitude":-12.461013,"Longitude":130.842705,"Address":"Service Centre 36 Address Details go here!"},{"Name":"Service Centre 37","ImageUrl":"/Data/Images/037.jpg","Phone":"000000037","Url":"www.our-service-centre-url.com/sc37","Latitude":-34.88827,"Longitude":138.60341,"Address":"Service Centre 37 Address Details go here!"},{"Name":"Service Centre 38","ImageUrl":"/Data/Images/038.jpg","Phone":"000000038","Url":"www.our-service-centre-url.com/sc38","Latitude":-31.894119,"Longitude":116.032212,"Address":"Service Centre 38 Address Details go here!"},{"Name":"Service Centre 39","ImageUrl":"/Data/Images/039.jpg","Phone":"000000039","Url":"www.our-service-centre-url.com/sc39","Latitude":-31.942458,"Longitude":115.852783,"Address":"Service Centre 39 Address Details go here!"},{"Name":"Service Centre 40","ImageUrl":"/Data/Images/040.jpg","Phone":"000000040","Url":"www.our-service-centre-url.com/sc40","Latitude":-34.943403,"Longitude":138.607285,"Address":"Service Centre 40 Address Details go here!"},{"Name":"Service Centre 41","ImageUrl":"/Data/Images/041.jpg","Phone":"000000041","Url":"www.our-service-centre-url.com/sc41","Latitude":0.0,"Longitude":0.0,"Address":"Service Centre 41 Address Details go here!"},{"Name":"Service Centre 42","ImageUrl":"/Data/Images/042.jpg","Phone":"000000042","Url":"www.our-service-centre-url.com/sc42","Latitude":-35.330393,"Longitude":149.18359,"Address":"Service Centre 42 Address Details go here!"},{"Name":"Service Centre 43","ImageUrl":"/Data/Images/043.jpg","Phone":"000000043","Url":"www.our-service-centre-url.com/sc43","Latitude":-37.966546,"Longitude":145.055446,"Address":"Service Centre 43 Address Details go here!"},{"Name":"Service Centre 44","ImageUrl":"/Data/Images/044.jpg","Phone":"000000044","Url":"www.our-service-centre-url.com/sc44","Latitude":-27.36461,"Longitude":153.0167,"Address":"Service Centre 44 Address Details go here!"},{"Name":"Service Centre 45","ImageUrl":"/Data/Images/045.jpg","Phone":"000000045","Url":"www.our-service-centre-url.com/sc45","Latitude":-37.816255,"Longitude":145.05936,"Address":"Service Centre 45 Address Details go here!"},{"Name":"Service Centre 46","ImageUrl":"/Data/Images/046.jpg","Phone":"000000046","Url":"www.our-service-centre-url.com/sc46","Latitude":-34.051935,"Longitude":150.82575,"Address":"Service Centre 46 Address Details go here!"},{"Name":"Service Centre 47","ImageUrl":"/Data/Images/047.jpg","Phone":"000000047","Url":"www.our-service-centre-url.com/sc47","Latitude":-34.9146165,"Longitude":138.631711,"Address":"Service Centre 47 Address Details go here!"},{"Name":"Service Centre 48","ImageUrl":"/Data/Images/048.jpg","Phone":"000000048","Url":"www.our-service-centre-url.com/sc48","Latitude":-33.828443,"Longitude":151.201763,"Address":"Service Centre 48 Address Details go here!"},{"Name":"Service Centre 49","ImageUrl":"/Data/Images/049.jpg","Phone":"000000049","Url":"www.our-service-centre-url.com/sc49","Latitude":-37.800363,"Longitude":144.996575,"Address":"Service Centre 49 Address Details go here!"},{"Name":"Service Centre 50","ImageUrl":"/Data/Images/050.jpg","Phone":"000000050","Url":"www.our-service-centre-url.com/sc50","Latitude":-32.936152,"Longitude":151.725976,"Address":"Service Centre 50 Address Details go here!"},{"Name":"Service Centre 51","ImageUrl":"/Data/Images/051.jpg","Phone":"000000051","Url":"www.our-service-centre-url.com/sc51","Latitude":-33.868398,"Longitude":151.105721,"Address":"Service Centre 51 Address Details go here!"},{"Name":"Service Centre 52","ImageUrl":"/Data/Images/052.jpg","Phone":"000000052","Url":"www.our-service-centre-url.com/sc52","Latitude":-37.803182,"Longitude":144.958519,"Address":"Service Centre 52 Address Details go here!"},{"Name":"Service Centre 53","ImageUrl":"/Data/Images/053.jpg","Phone":"000000053","Url":"www.our-service-centre-url.com/sc53","Latitude":-33.794226,"Longitude":151.196718,"Address":"Service Centre 53 Address Details go here!"},{"Name":"Service Centre 54","ImageUrl":"/Data/Images/054.jpg","Phone":"000000054","Url":"www.our-service-centre-url.com/sc54","Latitude":-33.435252,"Longitude":151.38687,"Address":"Service Centre 54 Address Details go here!"},{"Name":"Service Centre 55","ImageUrl":"/Data/Images/055.jpg","Phone":"000000055","Url":"www.our-service-centre-url.com/sc55","Latitude":-37.819731,"Longitude":144.958846,"Address":"Service Centre 55 Address Details go here!"},{"Name":"Service Centre 56","ImageUrl":"/Data/Images/056.jpg","Phone":"000000056","Url":"www.our-service-centre-url.com/sc56","Latitude":-32.898894,"Longitude":151.73832,"Address":"Service Centre 56 Address Details go here!"},{"Name":"Service Centre 57","ImageUrl":"/Data/Images/057.jpg","Phone":"000000057","Url":"www.our-service-centre-url.com/sc57","Latitude":-33.783637,"Longitude":151.13456,"Address":"Service Centre 57 Address Details go here!"},{"Name":"Service Centre 58","ImageUrl":"/Data/Images/058.jpg","Phone":"000000058","Url":"www.our-service-centre-url.com/sc58","Latitude":-33.814508,"Longitude":151.005107,"Address":"Service Centre 58 Address Details go here!"},{"Name":"Service Centre 59","ImageUrl":"/Data/Images/059.jpg","Phone":"000000059","Url":"www.our-service-centre-url.com/sc59","Latitude":-37.833737,"Longitude":144.94962,"Address":"Service Centre 59 Address Details go here!"},{"Name":"Service Centre 60","ImageUrl":"/Data/Images/060.jpg","Phone":"000000060","Url":"www.our-service-centre-url.com/sc60","Latitude":-37.846187,"Longitude":144.97963,"Address":"Service Centre 60 Address Details go here!"},{"Name":"Service Centre 61","ImageUrl":"/Data/Images/061.jpg","Phone":"000000061","Url":"www.our-service-centre-url.com/sc61","Latitude":-19.265995,"Longitude":146.786392,"Address":"Service Centre 61 Address Details go here!"},{"Name":"Service Centre 62","ImageUrl":"/Data/Images/062.jpg","Phone":"000000062","Url":"www.our-service-centre-url.com/sc62","Latitude":-33.8071513,"Longitude":151.0864475,"Address":"Service Centre 62 Address Details go here!"},{"Name":"Service Centre 63","ImageUrl":"/Data/Images/063.jpg","Phone":"000000063","Url":"www.our-service-centre-url.com/sc63","Latitude":-34.421979,"Longitude":150.893968,"Address":"Service Centre 63 Address Details go here!"},{"Name":"Service Centre 64","ImageUrl":"/Data/Images/064.jpg","Phone":"000000064","Url":"www.our-service-centre-url.com/sc64","Latitude":0.0,"Longitude":0.0,"Address":"Service Centre 64 Address Details go here!"},{"Name":"Service Centre 65","ImageUrl":"/Data/Images/065.jpg","Phone":"000000065","Url":"www.our-service-centre-url.com/sc65","Latitude":-27.4712127,"Longitude":153.0287816,"Address":"Service Centre 65 Address Details go here!"},{"Name":"Service Centre 66","ImageUrl":"/Data/Images/066.jpg","Phone":"000000066","Url":"www.our-service-centre-url.com/sc66","Latitude":-27.476312,"Longitude":153.008265,"Address":"Service Centre 66 Address Details go here!"},{"Name":"Service Centre 67","ImageUrl":"/Data/Images/067.jpg","Phone":"000000067","Url":"www.our-service-centre-url.com/sc67","Latitude":-33.418753,"Longitude":149.580617,"Address":"Service Centre 67 Address Details go here!"},{"Name":"Service Centre 68","ImageUrl":"/Data/Images/068.jpg","Phone":"000000068","Url":"www.our-service-centre-url.com/sc68","Latitude":0.0,"Longitude":0.0,"Address":"Service Centre 68 Address Details go here!"},{"Name":"Service Centre 69","ImageUrl":"/Data/Images/069.jpg","Phone":"000000069","Url":"www.our-service-centre-url.com/sc69","Latitude":-33.924836,"Longitude":150.921185,"Address":"Service Centre 69 Address Details go here!"},{"Name":"Service Centre 70","ImageUrl":"/Data/Images/070.jpg","Phone":"000000070","Url":"www.our-service-centre-url.com/sc70","Latitude":-33.7761226,"Longitude":150.9531434,"Address":"Service Centre 70 Address Details go here!"},{"Name":"Service Centre 71","ImageUrl":"/Data/Images/071.jpg","Phone":"000000071","Url":"www.our-service-centre-url.com/sc71","Latitude":-34.033577,"Longitude":151.099085,"Address":"Service Centre 71 Address Details go here!"},{"Name":"Service Centre 72","ImageUrl":"/Data/Images/072.jpg","Phone":"000000072","Url":"www.our-service-centre-url.com/sc72","Latitude":-33.848742,"Longitude":151.033422,"Address":"Service Centre 72 Address Details go here!"},{"Name":"Service Centre 73","ImageUrl":"/Data/Images/073.jpg","Phone":"000000073","Url":"www.our-service-centre-url.com/sc73","Latitude":-33.796924,"Longitude":150.922433,"Address":"Service Centre 73 Address Details go here!"},{"Name":"Service Centre 74","ImageUrl":"/Data/Images/074.jpg","Phone":"000000074","Url":"www.our-service-centre-url.com/sc74","Latitude":-27.467314,"Longitude":153.008392,"Address":"Service Centre 74 Address Details go here!"},{"Name":"Service Centre 75","ImageUrl":"/Data/Images/075.jpg","Phone":"000000075","Url":"www.our-service-centre-url.com/sc75","Latitude":0.0,"Longitude":0.0,"Address":"Service Centre 75 Address Details go here!"},{"Name":"Service Centre 76","ImageUrl":"/Data/Images/076.jpg","Phone":"000000076","Url":"www.our-service-centre-url.com/sc76","Latitude":-23.342039,"Longitude":150.521053,"Address":"Service Centre 76 Address Details go here!"},{"Name":"Service Centre 77","ImageUrl":"/Data/Images/077.jpg","Phone":"000000077","Url":"www.our-service-centre-url.com/sc77","Latitude":-37.886931,"Longitude":145.023294,"Address":"Service Centre 77 Address Details go here!"},{"Name":"Service Centre 78","ImageUrl":"/Data/Images/078.jpg","Phone":"000000078","Url":"www.our-service-centre-url.com/sc78","Latitude":-37.918194,"Longitude":145.237745,"Address":"Service Centre 78 Address Details go here!"},{"Name":"Service Centre 79","ImageUrl":"/Data/Images/079.jpg","Phone":"000000079","Url":"www.our-service-centre-url.com/sc79","Latitude":-33.738079,"Longitude":150.68866,"Address":"Service Centre 79 Address Details go here!"},{"Name":"Service Centre 80","ImageUrl":"/Data/Images/080.jpg","Phone":"000000080","Url":"www.our-service-centre-url.com/sc80","Latitude":-37.541539,"Longitude":143.841988,"Address":"Service Centre 80 Address Details go here!"},{"Name":"Service Centre 81","ImageUrl":"/Data/Images/081.jpg","Phone":"000000081","Url":"www.our-service-centre-url.com/sc81","Latitude":-33.870388,"Longitude":151.195665,"Address":"Service Centre 81 Address Details go here!"},{"Name":"Service Centre 82","ImageUrl":"/Data/Images/082.jpg","Phone":"000000082","Url":"www.our-service-centre-url.com/sc82","Latitude":-27.521796,"Longitude":153.190498,"Address":"Service Centre 82 Address Details go here!"},{"Name":"Service Centre 83","ImageUrl":"/Data/Images/083.jpg","Phone":"000000083","Url":"www.our-service-centre-url.com/sc83","Latitude":-37.819119,"Longitude":145.154642,"Address":"Service Centre 83 Address Details go here!"},{"Name":"Service Centre 84","ImageUrl":"/Data/Images/084.jpg","Phone":"000000084","Url":"www.our-service-centre-url.com/sc84","Latitude":-35.111791,"Longitude":147.370713,"Address":"Service Centre 84 Address Details go here!"},{"Name":"Service Centre 85","ImageUrl":"/Data/Images/085.jpg","Phone":"000000085","Url":"www.our-service-centre-url.com/sc85","Latitude":-34.976586,"Longitude":138.517878,"Address":"Service Centre 85 Address Details go here!"},{"Name":"Service Centre 86","ImageUrl":"/Data/Images/086.jpg","Phone":"000000086","Url":"www.our-service-centre-url.com/sc86","Latitude":-38.142105,"Longitude":145.121477,"Address":"Service Centre 86 Address Details go here!"},{"Name":"Service Centre 87","ImageUrl":"/Data/Images/087.jpg","Phone":"000000087","Url":"www.our-service-centre-url.com/sc87","Latitude":-36.381352,"Longitude":145.403924,"Address":"Service Centre 87 Address Details go here!"},{"Name":"Service Centre 88","ImageUrl":"/Data/Images/088.jpg","Phone":"000000088","Url":"www.our-service-centre-url.com/sc88","Latitude":-37.7191,"Longitude":145.141186,"Address":"Service Centre 88 Address Details go here!"},{"Name":"Service Centre 89","ImageUrl":"/Data/Images/089.jpg","Phone":"000000089","Url":"www.our-service-centre-url.com/sc89","Latitude":-38.150982,"Longitude":144.359064,"Address":"Service Centre 89 Address Details go here!"},{"Name":"Service Centre 90","ImageUrl":"/Data/Images/090.jpg","Phone":"000000090","Url":"www.our-service-centre-url.com/sc90","Latitude":-37.746792,"Longitude":144.965857,"Address":"Service Centre 90 Address Details go here!"},{"Name":"Service Centre 91","ImageUrl":"/Data/Images/091.jpg","Phone":"000000091","Url":"www.our-service-centre-url.com/sc91","Latitude":-36.756105,"Longitude":144.263402,"Address":"Service Centre 91 Address Details go here!"},{"Name":"Service Centre 92","ImageUrl":"/Data/Images/092.jpg","Phone":"000000092","Url":"www.our-service-centre-url.com/sc92","Latitude":-37.829071,"Longitude":147.615954,"Address":"Service Centre 92 Address Details go here!"},{"Name":"Service Centre 93","ImageUrl":"/Data/Images/093.jpg","Phone":"000000093","Url":"www.our-service-centre-url.com/sc93","Latitude":-37.750973,"Longitude":144.98893,"Address":"Service Centre 93 Address Details go here!"},{"Name":"Service Centre 94","ImageUrl":"/Data/Images/094.jpg","Phone":"000000094","Url":"www.our-service-centre-url.com/sc94","Latitude":-37.99205,"Longitude":145.195475,"Address":"Service Centre 94 Address Details go here!"},{"Name":"Service Centre 95","ImageUrl":"/Data/Images/095.jpg","Phone":"000000095","Url":"www.our-service-centre-url.com/sc95","Latitude":-31.957262,"Longitude":115.864116,"Address":"Service Centre 95 Address Details go here!"},{"Name":"Service Centre 96","ImageUrl":"/Data/Images/096.jpg","Phone":"000000096","Url":"www.our-service-centre-url.com/sc96","Latitude":-33.345596,"Longitude":115.66035,"Address":"Service Centre 96 Address Details go here!"},{"Name":"Service Centre 97","ImageUrl":"/Data/Images/097.jpg","Phone":"000000097","Url":"www.our-service-centre-url.com/sc97","Latitude":-32.1015942,"Longitude":115.8219514,"Address":"Service Centre 97 Address Details go here!"},{"Name":"Service Centre 98","ImageUrl":"/Data/Images/098.jpg","Phone":"000000098","Url":"www.our-service-centre-url.com/sc98","Latitude":-27.618439,"Longitude":153.126358,"Address":"Service Centre 98 Address Details go here!"},{"Name":"Service Centre 99","ImageUrl":"/Data/Images/099.jpg","Phone":"000000099","Url":"www.our-service-centre-url.com/sc99","Latitude":-37.700925,"Longitude":144.880651,"Address":"Service Centre 99 Address Details go here!"},{"Name":"Service Centre 100","ImageUrl":"/Data/Images/100.jpg","Phone":"0000000100","Url":"www.our-service-centre-url.com/sc100","Latitude":-33.700066,"Longitude":151.100383,"Address":"Service Centre 100 Address Details go here!"},{"Name":"Service Centre 101","ImageUrl":"/Data/Images/101.jpg","Phone":"0000000101","Url":"www.our-service-centre-url.com/sc101","Latitude":-34.450564,"Longitude":150.450409,"Address":"Service Centre 101 Address Details go here!"},{"Name":"Service Centre 102","ImageUrl":"/Data/Images/102.jpg","Phone":"0000000102","Url":"www.our-service-centre-url.com/sc102","Latitude":-33.874919,"Longitude":151.221372,"Address":"Service Centre 102 Address Details go here!"},{"Name":"Service Centre 103","ImageUrl":"/Data/Images/103.jpg","Phone":"0000000103","Url":"www.our-service-centre-url.com/sc103","Latitude":-34.973409,"Longitude":138.572962,"Address":"Service Centre 103 Address Details go here!"},{"Name":"Service Centre 104","ImageUrl":"/Data/Images/104.jpg","Phone":"0000000104","Url":"www.our-service-centre-url.com/sc104","Latitude":-35.117366,"Longitude":138.491612,"Address":"Service Centre 104 Address Details go here!"},{"Name":"Service Centre 105","ImageUrl":"/Data/Images/105.jpg","Phone":"0000000105","Url":"www.our-service-centre-url.com/sc105","Latitude":-42.850142,"Longitude":147.297531,"Address":"Service Centre 105 Address Details go here!"},{"Name":"Service Centre 106","ImageUrl":"/Data/Images/106.jpg","Phone":"0000000106","Url":"www.our-service-centre-url.com/sc106","Latitude":-35.238709,"Longitude":149.060724,"Address":"Service Centre 106 Address Details go here!"},{"Name":"Service Centre 107","ImageUrl":"/Data/Images/107.jpg","Phone":"0000000107","Url":"www.our-service-centre-url.com/sc107","Latitude":-32.04287,"Longitude":115.88646,"Address":"Service Centre 107 Address Details go here!"},{"Name":"Service Centre 108","ImageUrl":"/Data/Images/108.jpg","Phone":"0000000108","Url":"www.our-service-centre-url.com/sc108","Latitude":-35.275219,"Longitude":149.132238,"Address":"Service Centre 108 Address Details go here!"},{"Name":"Service Centre 109","ImageUrl":"/Data/Images/109.jpg","Phone":"0000000109","Url":"www.our-service-centre-url.com/sc109","Latitude":-27.566915,"Longitude":152.938339,"Address":"Service Centre 109 Address Details go here!"},{"Name":"Service Centre 110","ImageUrl":"/Data/Images/110.jpg","Phone":"0000000110","Url":"www.our-service-centre-url.com/sc110","Latitude":-27.563628,"Longitude":151.949133,"Address":"Service Centre 110 Address Details go here!"},{"Name":"Service Centre 111","ImageUrl":"/Data/Images/111.jpg","Phone":"0000000111","Url":"www.our-service-centre-url.com/sc111","Latitude":-38.02536,"Longitude":145.306098,"Address":"Service Centre 111 Address Details go here!"},{"Name":"Service Centre 112","ImageUrl":"/Data/Images/112.jpg","Phone":"0000000112","Url":"www.our-service-centre-url.com/sc112","Latitude":-33.859948,"Longitude":151.17217,"Address":"Service Centre 112 Address Details go here!"}]
